Catalog Number,Alternative Number,Source,Species Group,Sex,Country,State/Province,County,Locality,Longitude,Latitude,Sample Type
756,,MZUSP,goeldii,NA,Brazil,Mato Grosso,Chapada dos Guimarães,UHE APM Manso,-55.78638,-14.87316,FR
ABX005,,LMUSP,guyannensis,F,Brazil,Amazonas,Borba,"Comunidade Maruim, margem esquerda Rio Abacaxis,margem direita Rio Madeira",-58.63314,-4.31203,FR
ABX008,,LMUSP,guyannensis,F,Brazil,Amazonas,Nova Olinda do Norte,"Acima da Comunidade Maruim, margem esquerda Rio Abacaxis, margem direita Rio Madeira",-58.63442,-4.34328,FR
ABX020,,LMUSP,guyannensis,F,Brazil,Amazonas,Nova Olinda do Norte,"Acima da Comunidade Maruim, margem esquerda Rio Abacaxis, margem direita Rio Madeira",-58.63442,-4.34328,FR
ABX027,,LMUSP,goeldii,F,Brazil,Amazonas,Borba,"Comunidade Maruim, margem esquerda Rio Abacaxis, margem direita Rio Madeira",-58.63314,-4.31203,FR
ABX028,,LMUSP,guyannensis,F,Brazil,Amazonas,Borba,"Comunidade Maruim, margem esquerda Rio Abacaxis, margem direita Rio Madeira",-58.63314,-4.31203,FR
ABX029,,LMUSP,guyannensis,M,Brazil,Amazonas,Nova Olinda do Norte,"Acima da Comunidade Maruim, margem direita Rio Abacaxis, margem direita Rio Madeira",-58.63442,-4.34328,FR
ABX077,,LMUSP,guyannensis,F,Brazil,Amazonas,Maués,"Abaixo Paca-Mirim, ca. 600 m do Rio Abacaxis, margem direita Rio Abacaxis, margem direita Rio Madeira",-58.20922,-4.58208,FR
AMCC112929,USNM448714,AMNH-AMCC,trinitatis,F,Venezuela,Zulia,No information,Mision Tukuko,-72.8091,9.84363,FR
AMCC112987,USNM448733,AMNH-AMCC,trinitatis,F,Venezuela,Zulia,No information,Mision Tukuko,-72.8091,9.84363,FR
AMCC112999,USNM448711,AMNH-AMCC,guyannensis,M,Venezuela,Bolivar,No information,San Ignacio Yuruani,-61.09269,5.07502,FR
AMCC114577,MUSM23828,AMNH-AMCC,gardneri,NA,Peru,Loreto,Requena,Jenaro Herrera [=Genaro Herrera],-73.66744,-4.90625,FR
AMCC114589,MUSM23829,AMNH-AMCC,simonsi,NA,Peru,Loreto,Requena,Jenaro Herrera [=Genaro Herrera],-73.66744,-4.90625,FR
AMCC175984,JOG4521; EBRG25376,AMNH-AMCC,trinitatis,NA,Venezuela,Fálcon,Serranía de San Luís,"Cabure, Camino Viejo",-69.63328,11.13328,FR
AMCC176080,JOG4488; EBRG25473,AMNH-AMCC,trinitatis,NA,Venezuela,Fálcon,Península de Paraguaná,"Cerro Santa Ana, ca. 4 Km N Santa Ana",-69.95012,11.81811,FR
AMNH23109,,AMNH-AMCC,trinitatis,F,Colombia,Magdalena,Santa Marta,Minca,-74.11742,11.14226,DR
AMNH235152,,AMNH-AMCC,trinitatis,NA,Trinidad and Tobago,Trinidad,No information,Turure Ward,-61.46712,10.41568,FR
AMNH269122,,AMNH-AMCC,longicaudatus,M,French Guyana,Cayenne,Sinnamary,"Paracou, near Sinnamary",-52.92366,5.27438,FR
AMNH269123,LHE1163,AMNH-AMCC,longicaudatus,M,French Guyana,Cayenne,Sinnamary,"Paracou, near Sinnamary",-52.92366,5.27438,FR
AMNH272698,RSV2092,AMNH-AMCC,longicaudatus,F,Peru,Loreto,Alto Amazonas,"Nuevo San Juan, Río Galvez",-73.16208,-5.2495,FR
AMNH272700,RSV2095,AMNH-AMCC,longicaudatus,M,Peru,Loreto,Alto Amazonas,"Nuevo San Juan, Río Galvez",-73.16208,-5.2495,FR
AMNH272714,RSV2132,AMNH-AMCC,gardneri,F,Peru,Loreto,Alto Amazonas,"Nuevo San Juan, Río Galvez",-73.16208,-5.2495,FR
AMNH64659,,AMNH-AMCC,decumanus,M,Ecuador,Santa Elena,"Santa Elena, Manglaralto","Manglaralto, Cerro Manglar Alto",-80.71113,-1.93681,FR
AMNH78026,,AMNH-AMCC,goeldii,M,Venezuela,Amazonas,Atabapo,"Orinoco River, Cana Paripari",-67.68961,4.03523,FR
APC1085,,MZUSP,longicaudatus,F,Brazil,Mato Grosso,Porto Estrela,Estação Ecológica Serra das Araras,-57.21464,-15.65353,FR
APC1217,,MZUSP,guyannensis,F,Brazil,Tocantins,Mateiros,Estação Ecológica Serra Geral do Tocantins,-46.70895,-10.85524,FR
APC817,,MZUSP,guyannensis,F,Brazil,Distrito Federal,Brasília,"Centro de Instrução e Adestramento de Brasília, CIAB",-47.98038,-16.01777,FR
APC839,,MZUSP,guyannensis,M,Brazil,Distrito Federal,Brasília,"Centro de Instrução e Adestramento de Brasília, CIAB",-47.98038,-16.01777,FR
BAC320,UFES1580,CTA-UFES,guyannensis,M,Brazil,Pará,Canaã dos Carajás,"Canga B, Serra Azul",-50.42313,-6.34376,FR
BM12174,,LMUSP,goeldii,M,Brazil,Pará,Vitória do Xingu,UHE Belo Monte,-51.90807,-3.38232,FR
BMC111589,,LMUSP,guyannensis,F,Brazil,Pará,Vitória do Xingu,UHE Belo Monte,-51.81476,-3.13498,FR
BMC111682,,LMUSP,goeldii,M,Brazil,Pará,Vitória do Xingu,UHE Belo Monte,-51.75418,-3.27342,FR
C247647,C247647-6738,MZUSP,goeldii,M,Brazil,Mato Grosso,Colider,"Rancho do Rogério, Margem esquerda do Rio Teles Pires,",-56.51269,-9.45183,FR
CAM091,,MZUSP,goeldii,NA,Brazil,Mato Grosso,Sapezal,"UHE Cachoeirão, Rio Juruena",-58.95777,-12.9896,DR
CAM200,,MZUSP,goeldii,NA,Brazil,Mato Grosso,Sapezal,"UHE Cachoeirão, Rio Juruena",-58.95777,-12.9896,DR
CIT375,PEU960021,CIT,longicaudatus,NA,Brazil,Mato Grosso,Aripuanã,No information,-59.44718,-10.17484,FR
CIT393,PEU960065,CIT,longicaudatus,NA,Brazil,Mato Grosso,Aripuanã,No information,-59.44718,-10.17484,FR
CIT405,M968406,CIT,longicaudatus,F,Brazil,Mato Grosso,Apiacás,No information,-57.39563,-9.5678,FR
CIT448,M968498,CIT,longicaudatus,F,Brazil,Mato Grosso,Apiacás,No information,-57.39563,-9.5678,FR
CIT588,M088,CIT,goeldii,F,Brazil,Mato Grosso,Gaúcha do Norte,No information,-53.25595,-13.18229,FR
CTA1028,YL53,CTA-UFES,Euryzygomatomys spinosus,M,Brazil,Minas Gerais,No information,No information,-43.5,-20.083,FR
CTA1349,MVZ197574; LPC394,CTA-UFES,longicaudatus,F,Brazil,Mato Grosso,Barra do Garças,"Fazenda São Luis, 30 km N Barra do Garças",-52.35583,-15.63333,FR
CTA1415,MVZ197661; LPC462,CTA-UFES,longicaudatus,M,Brazil,Mato Grosso,Barra do Garças,"Fazenda São Luis, 30 km N Barra do Garças",-52.35583,-15.63333,FR
CTA1511,UFMG3029,CTA-UFES,guyannensis,F,Brazil,Mato Grosso,Alta Floresta,"Reserva Ecológica Cristalino, 40 km N Alta Floresta",-55.93028,-9.59694,FR
CTA1517,MVZ197575; LPC564,CTA-UFES,goeldii,F,Brazil,Mato Grosso,Alta Floresta,"Reserva Ecológica Cristalino, 40 km N Alta Floresta",-55.93028,-9.59694,FR
CTA1652,UFMG3035,CTA-UFES,guyannensis,M,Brazil,Tocantins,Peixe,Rio Santa Teresa,-48.63556,-11.84278,FR
CTA1835,UFES1390,CTA-UFES,guyannensis,F,Brazil,Tocantins,Pium,"Mata do Sítio Velho, Parque Estadual do Cantão",-49.95863,-9.30361,FR
CTA4195,MPEG42380; SLF225,CTA-UFES,guyannensis,F,Brazil,Pará,Oriximiná,"Porto de Trombetas, Platô Bacaba",-56.36422,-1.79591,FR
CTA4226,MPEG42412; SLF309 ,CTA-UFES,guyannensis,F,Brazil,Pará,Oriximiná,"Porto de Trombetas, Platô Bacaba",-56.36422,-1.79591,FR
CTA4245,MPEG42367,CTA-UFES,longicaudatus,F,Brazil,Pará,Oriximiná,"Porto de Trombetas, Platô Bacaba",-56.36422,-1.79591,FR
CTA4324,UFES2637,CTA-UFES,goeldii,F,Brazil,Amazonas,Autazes,"ADA II, Trilha morro",-59.1306,-3.57972,FR
CTA4325,UFES2638,CTA-UFES,goeldii,M,Brazil,Amazonas,Autazes,"ADA II, Trilha morro",-59.1306,-3.57972,FR
CTA4326,UFES2639,CTA-UFES,goeldii,F,Brazil,Amazonas,Autazes,"ADA II, Trilha morro",-59.1306,-3.57972,FR
CTA4327,UFES2640,CTA-UFES,goeldii,M,Brazil,Amazonas,Autazes,"ADA II, Trilha morro",-59.1306,-3.57972,FR
CTA4352,UFES2705,CTA-UFES,gardneri,F,Brazil,Amazonas,Autazes,"Fazenda Vista Alegre, Trilha Bananal",-59.1306,-3.57972,FR
CTA4357,UFES2710,CTA-UFES,goeldii,M,Brazil,Amazonas,Nova Olinda do Norte,"Margem esquerda do Rio Madeira, Trilha Madeira II",-59.0942,-3.88806,FR
CTA4363,UFES2834,CTA-UFES,gardneri,M,Brazil,Amazonas,Autazes,"Trilha da Estrada, Urucurituba",-59.1306,-3.57972,FR
CTA4371,UFES2842,CTA-UFES,goeldii,F,Brazil,Amazonas,Autazes,"Margem direita do Rio Madeira, Urucurituba",-59.1306,-3.57972,FR
CTA4390,UFES2945; BM74724,CTA-UFES,guyannensis,M,Brazil,Pará,Vitória do Xingu,Margem esquerda do Rio Xingu,-51.77012,-3.12428,FR
CTA4400,UFES2962; BM101571,CTA-UFES,goeldii,M,Brazil,Pará,Vitória do Xingu,Margem esquerda do Rio Xingu,-51.77012,-3.12428,FR
DPO18,UFES1569,CTA-UFES,guyannensis,F,Brazil,Pará,Canaã dos Carajás,"Capão A, Serra Sul",-50.44612,-6.34786,FR
DPO19,UFES1570,CTA-UFES,guyannensis,F,Brazil,Pará,Canaã dos Carajás,"Canga 1D, Serra Sul, Núcleo Urbano de Carajás",-50.36045,-6.38747,FR
EEB1013,,LMUSP,Trinomys dimidiatus,F,Brazil,São Paulo,No information,No information,-44.368,-22.80657,FR
EFA004,,LMUSP,goeldii,M,Brazil,Amazonas,Beruri,"Rio Purus, margem direita, Comunidade de Itapuru, Igarapé Ubim",-61.82882,-4.35058,FR
EFA015,,LMUSP,goeldii,M,Brazil,Amazonas,Beruri,"Rio Purus, margem direita, Comunidade de Itapuru, Igarapé Xaviana",-61.82744,-4.40803,FR
EFA037,,LMUSP,simonsi,F,Brazil,Amazonas,Anori,"Rio Purus, margem esquerda, Comunidade de Uixi, Sítio de Açai, antiga Comunidade",-62.26745,-4.42802,FR
EFA039,,LMUSP,simonsi,M,Brazil,Amazonas,Anori,"Rio Purus, margem esquerda, Comunidade de Uixi, cabeceira do Lago Ayapuá, trilha atrás da Comunidade",-62.30707,-4.43154,FR
FMNH175255,UPE133,FMNH,longicaudatus,F,Peru,Madre de Dios,Manu,"Maskoitania, 13.4 km NNW Atalaya, left bank Rio Alto Madre de Dios",-71.38542,-12.77165,FR
FMNH175256,SS2146,FMNH,longicaudatus,F,Peru,Madre de Dios,Manu,"Maskoitania, 13.4 km NNW Atalaya, left bank Rio Alto Madre de Dios",-71.38542,-12.77165,FR
FMNH175275,UPE231,FMNH,simonsi,F,Peru,Cusco,Paucartambo,"Consuelo, 15.9 km SW Pilcopata",-71.49185,-13.02362,FR
FMNH26441,,FMNH,guyannensis,M,Brazil,Maranhão,No information,Alto Parnaíba,-45.78333,-9.1,SK
FMNH52618,,FMNH,longicaudatus,F,Peru,Puno,Carabaya,Santo Domingo,-69.68333,-13.85,SK
FMNH71184,PH6537,FMNH,trinitatis,F,Colombia,Boyaca,Muzo,Muzo,-74.1,-5.5333,SK
FMPS010,,LMUSP,Clyomys laticeps,NA,Brazil,Mato Grosso do Sul,No information,No information,-57.65317,-18.99968,FR
ICA085,,LMUSP,echinothrix,NA,Brazil,Amazonas,Santo  Antônio do Içá,"Comunidade Cachoeirinha, margem esquerda do Rio Içá",-68.34741,-2.87486,FR
ICA095,,LMUSP,goeldii,M,Brazil,Amazonas,Santo  Antônio do Içá,"Trilha do Açaí, margem esquerda do Rio Içá",-68.33989,-2.90496,FR
ICA240,,LMUSP,echinothrix,F,Brazil,Amazonas,Santo  Antônio do Içá,"Oposto à Comunidade São Pedro, margem direita do Rio Içá",-68.87975,-3.03818,FR
ICA245,,LMUSP,echinothrix,M,Brazil,Amazonas,Santo  Antônio do Içá,"Oposto à Comunidade São Pedro, margem direita do Rio Içá",-68.88251,-3.03233,FR
ICA246,,LMUSP,goeldii,M,Brazil,Amazonas,Santo  Antônio do Içá,"Oposto à Comunidade São Pedro, margem direita do Rio Içá",-68.88524,-3.02949,FR
JAP006,,LMUSP,goeldii,F,Brazil,Amazonas,Maraã,"Trilha da Capoeira, Igarapé Taracuá, próxima a Comunidade Bom Futuro, margem esquerda do Rio Japurá",-65.75583,-1.76103,FR
JAP012,,LMUSP,echinothrix,F,Brazil,Amazonas,Maraã,"Trilha da Capoeira, Igarapé Taracuá, próxima a Comunidade Bom Futuro, margem esquerda do Rio Japurá",-65.75583,-1.76103,FR
JAP094,,LMUSP,longicaudatus,M,Brazil,Amazonas,Japurá,"Trilha da Canoa Virada, antiga Vila de Santa Fé, margem direita do Rio Japurá",-66.35717,-1.76422,FR
JAP095,,LMUSP,longicaudatus,F,Brazil,Amazonas,Japurá,"Trilha da Canoa Virada, antiga Vila de Santa Fé, margem direita do Rio Japurá",-66.35717,-1.76422,FR
JAP098,,LMUSP,longicaudatus,F,Brazil,Amazonas,Japurá,"Trilha da Canoa Virada, antiga Vila de Santa Fé, margem direita do Rio Japurá",-66.35717,-1.76422,FR
JAP107,,LMUSP,longicaudatus,M,Brazil,Amazonas,Japurá,"Trilha da Canoa Virada, antiga Vila de Santa Fé, margem direita do Rio Japurá",-66.35717,-1.76422,FR
JUF017,,LMUSP,guyannensis,M,Brazil,Roraima,Caicubi,"Boa Vista, próximo Vilarejo Caicubi, Igarapé Caicubi, afluente da margem direita do Rio Jufari",-62.15008,-0.94917,FR
JUF158,,LMUSP,guyannensis,F,Brazil,Roraima,Caicubi,"Inpa, próximo Vilarejo Caicubi, Igarapé Caicubi, afluente da margem direita do Rio Jufari",-62.09181,-1.02889,FR
LMUSP185,,LMUSP,longicaudatus,NA,Brazil,Acre,Brasileia,Reserva Extrativista Chico Mendes,-68.74681,-10.99838,FR
LMUSP298,,LMUSP,longicaudatus,,Brazil,Acre,Assis Brasil,Estacao Ecologica do Rio Acre,-69.56473,-10.93071,DR
MBR046,,LMUSP,Thrichomys pachyurus,F,Brazil,Mato Grosso do Sul,No information,No information,-54.61611,-20.46514,FR
MCNM1341,,MCN-M,guyannensis,F,Brazil,Maranhão,São Luís,UTE Ponto-Madeira,-44.35094,-2.56688,FR
MCNM1497,LGV161,MCN-M,guyannensis,M,Brazil,Pará,Canaã dos Carajás,"Projeto Cristalino, ca 20 km NW de Canaã",-49.72934,-6.43589,FR
MCNM1989,LOM37,MCN-M,guyannensis,M,Brazil,Minas Gerais,Paracatu,UHE Batalha,-47.39486,-17.25773,FR
MCNM2034,LOM35,MCN-M,guyannensis,M,Brazil,Minas Gerais,Paracatu,No information,-47.39486,-17.25773,FR
MCNM2258,BM78,MCN-M,longicaudatus,M,Brazil,Pará,Parauapebas,FLONA Carajás; ÁREA A4,-50.06717,-6.0548,FR
MJ12,,MZUSP,gardneri,M,Brazil,Rondônia,Porto Velho,Estação Ecológica Estadual Antônio Mujica Nava,-64.94222,-9.4139,FR
MJ252,,MZUSP,goeldii,M,Brazil,Rondônia,Porto Velho,"Abunã, margem direita do Rio Madeira, Fortaleza do Abunã",-65.34884,-9.59557,FR
MJ330,,MZUSP,longicaudatus,F,Brazil,Rondônia,Porto Velho,"Caiçara, margem direita do Rio Madeira, Mutum Paraná, UHE Jirau",-64.79292,-9.42976,FR
MJ391,,MZUSP,goeldii,M,Brazil,Rondônia,Porto Velho,"Caiçara, margem esquerda do Rio Madeira, Mutum Paraná, UHE Jirau",-64.83327,-9.43604,FR
MJ449,,MZUSP,gardneri,M,Brazil,Rondônia,Porto Velho,"Abunã, margem esquerda do Rio Madeira, Fortaleza do Abunã",-65.46861,-9.61306,FR
MJ514,,MZUSP,gardneri,F,Brazil,Rondônia,Porto Velho,"Caiçara, margem esquerda do Rio Madeira, Mutum Paraná, UHE Jirau",-64.87107,-9.44449,FR
MJ515,,MZUSP,gardneri,M,Brazil,Rondônia,Porto Velho,"Caiçara, margem esquerda do Rio Madeira, Mutum Paraná, UHE Jirau",-64.85128,-9.45414,FR
MJ523,,MZUSP,gardneri,M,Brazil,Rondônia,Porto Velho,"Abunã, margem esquerda do Rio Madeira, Fortaleza do Abunã",-65.4533,-9.63504,FR
MJ529,,MZUSP,simonsi,F,Brazil,Rondônia,Porto Velho,"Abunã, margem esquerda do Rio Madeira, Fortaleza do Abunã",-65.43986,-9.63406,FR
MJ6,,MZUSP,gardneri,M,Brazil,Rondônia,Porto Velho,Estação Ecológica Estadual Antônio Mujica Nava,-64.94222,-9.4139,FR
MJ601,,MZUSP,goeldii,F,Brazil,Rondônia,Porto Velho,"Mutum, margem esquerda do Rio Madeira, Mutum Paraná, UHE Jirau",-65.0713,-9.56918,FR
MJ665,,MZUSP,gardneri,F,Brazil,Rondônia,Porto Velho,"Caiçara, margem esquerda do Rio Madeira, Mutum Paraná, UHE Jirau",-64.85128,-9.45414,FR
MJ859,,MZUSP,longicaudatus,F,Brazil,Rondônia,Porto Velho,"Abunã, margem esquerda do Rio Madeira, Fortaleza do Abunã",-65.445,-9.62658,FR
MN36222,MNLM236,MN,guyannensis,M,Brazil,Goiás,Minaçu,"Rio Tocantinzinho, Serra da Mesa",-48.30485,-13.83346,FR
MN36702,MNLM262,MN,guyannensis,NA,Brazil,Goiás,Minaçu,"Rio Maranhão / Rio Boa Nova, Serra da Mesa",-48.30485,-13.83346,FR
MN56812,MNLM519,MN,guyannensis,NA,Brazil,Amazonas,Barcelos,"Rio Katana-ú, 2.7 Km NE Missão Marari",-64.78914,1.2086,FR
MN56815,MNLM521,MN,guyannensis,F,Brazil,Amazonas,Barcelos,"Rio Katana-ú, 2.7 Km NE Missão Marari",-64.78914,1.2086,FR
MN56816,MNLM522,MN,guyannensis,F,Brazil,Amazonas,Barcelos,"Rio Katana-ú, 2.7 Km NE Missão Marari",-64.78914,1.2086,FR
MN67246,APC599,CIT,longicaudatus,M,Brazil,Goiás,Mineiros,Parque Nacional das Emas,-52.92449,-18.12468,FR
MN76204,MNLM2306,MN,guyannensis,M,Brazil,Tocantins,São Sebastião do Tocantins,Fazenda Osara,-48.3,-5.28333,FR
MN76211,MNLM2312,MN,guyannensis,F,Brazil,Tocantins,São Sebastião do Tocantins,Fazenda Osara II,-48.3,-5.28333,FR
MN76750,MNLM2337,MN,guyannensis,F,Brazil,Tocantins,Lajeado,"Vale do Lajeado, 19 Km N de Palmas",-48.29032,-10.0782,FR
MN76754,MNLM2341,MN,guyannensis,F,Brazil,Tocantins,Lajeado,"Vale do Lajeado, 19 Km N de Palmas",-48.29032,-10.0782,FR
MPEG10658,,MPEG,simonsi,M,Brazil,Acre,Manoel Urbano,"BR-364, Km 08",-69.26065,-8.84739,DR
MPEG10811,,MPEG,longicaudatus,M,Brazil,Acre,Sena Madureira,Bairro do Triângulo,-68.67144,-9.07918,DR
MPEG10820,,MPEG,longicaudatus,F,Brazil,Acre,Sena Madureira,Bairro do Triângulo,-68.67144,-9.07918,DR
MPEG20767,BDP2122,FMNH,longicaudatus,M,Brazil,Rondônia,No information,"Cachoeira Nazaré W bank, Rio Ji-Paraná",-61.93104,-10.84726,DR
MPEG20768,BDP2186,FMNH,longicaudatus,M,Brazil,Rondônia,No information,"Cachoeira Nazaré, Rio Ji-Paraná",-61.93104,-10.84726,DR
MPEG20769,BDP2177,FMNH,longicaudatus,M,Brazil,Rondônia,No information,"Cachoeira Nazaré W bank, Rio Ji-Paraná",-61.93104,-10.84726,DR
MPEG21336,,MPEG,longicaudatus,F,Brazil,Rondônia,No information,"Cachoeira Nazaré W bank, Rio Ji-Paraná",-61.93104,-10.84726,DR
MPEG21338,,MPEG,longicaudatus,F,Brazil,Rondônia,No information,"Cachoeira Nazaré W bank, Rio Ji-Paraná",-61.93104,-10.84726,DR
MPEG21983,,MPEG,guyannensis,M,Brazil,Maranhão,No information,Reversa Indígena Caru (Índios Guajá),-46.33483,-3.70759,DR
MPEG22881,,MPEG,gardneri,NA,Brazil,Amazonas,Tefé,No information,-64.71989,-3.3539,DR
MPEG26357,,MPEG,simonsi,F,Brazil,Amazonas,No information,Estação Ecológica Mamirauá [Reserva de Desenvolvimento Sustentável],-65.70879,-2.21689,DR
MPEG34016,,MPEG,goeldii,F,Brazil,Amazonas,Humaitá,"Escola Agrotécnica, Km 8, BR-319 [IFAM-Campus Humaitá]",-63.07166,-7.55169,SK
MPEG34407,,MPEG,goeldii,F,Brazil,Amazonas,Humaitá,"Escola Agrotécnica, Km 8, BR-319 [IFAM-Campus Humaitá]",-63.07166,-7.55169,SK
MPEG40369,EPM07,MPEG,goeldii,NA,Brazil,Pará,Melgaço,"Estação Científica Ferreira Penna, Floresta Nacional de Caxiuanã",-51.45549,-1.7374,FR
MPEG40371,EPM04,MPEG,guyannensis,NA,Brazil,Pará,Melgaço,"Estação Científica Ferreira Penna, Floresta Nacional de Caxiuanã",-51.45549,-1.7374,FR
MRT3925,,CIT,guyannensis,NA,Brazil,Tocantins,Paranã,No information,-47.87264,-12.61673,FR
MSA-MC123,,MZUSP,goeldii,NA,Brazil,Rondônia,Porto Velho,UHE Santo Antônio,-63.9505,-8.80237,DR
MSA-SA110,,MZUSP,longicaudatus,NA,Brazil,Rondônia,Porto Velho,UHE Santo Antônio,-63.9505,-8.80237,DR
MSB140110,,MSB,decumanus,M,Ecuador,El Oro,"Las Lajas, La Libertad",Rio Puyango,-80.11667,-3.88333,FR
MSB140111,,MSB,decumanus,M,Ecuador,Manabi,"Jipijapa, Puerto de Cayo",Salaite,-80.75,-1.38333,FR
MSB208394,,MSB,longicaudatus,F,Bolivia,El Beni,No information,"El Valle, Chaco Maiz",-65.51084,-14.01672,FR
MSB210840,,MSB,longicaudatus,F,Bolivia,Santa Cruz,No information,3.5 Km W of Estacion Pailon,-62.75,-17.65,FR
MSB211792,,MSB,longicaudatus,M,Bolivia,Pando,No information,Las Piedras,-66.13381,-11.03798,FR
MSB211815,,MSB,goeldii,M,Bolivia,Pando,No information,Agua Dulce,-66.21667,-11.01667,FR
MSB236570,,MSB,gardneri,M,Bolivia,Pando,No information,Santa Rosa,-68.91681,-11.3501,FR
MSB236594,,MSB,simonsi,M,Bolivia,Pando,No information,Santa Rosa,-68.91681,-11.3501,FR
MSB236689,,MSB,goeldii,M,Bolivia,Pando,No information,"Opposite Independencia, Right bank Rio Madre de Dios",-67.56023,-11.49004,FR
MSB236698,,MSB,goeldii,F,Bolivia,Pando,No information,La Cruz,-68.84981,-11.35059,FR
MSB236806,,MSB,longicaudatus,M,Bolivia,Beni,No information,Boca del Rio Biata,-66.77966,-11.74947,FR
MSB236807,,MSB,goeldii,F,Bolivia,Beni,No information,Boca del Rio Biata,-66.77966,-11.74947,FR
MSB238391,,MSB,longicaudatus,F,Bolivia,Cochabamba,No information,"El Palmar, Rio Cochi Mayu",-65.55,-17.1,FR
MSB239628,,MSB,longicaudatus,F,Bolivia,Santa Cruz,No information,Los Lomitas,-63.11667,-17.88333,FR
MSB263513,,MSB,Hoplomys gymnurus,M,Panama,Veraguas,No information,No information,-81.15074,8.53204,FR
MSB45836,,MSB,semispinosus,M,Honduras,Gracias a Dios,Brus Laguna,"Rio Mairin Tingni, 0.5 Km up from Rio Planalto",-84.7178,15.84003,FR
MSB70574,,MSB,longicaudatus,M,Bolivia,Cochabamba,No information,"El Palmar, Rio Cochi Mayu",-65.55,-17.1,FR
MSB70575,,MSB,longicaudatus,F,Bolivia,Cochabamba,No information,"12.5 Km SW Villa Tunari, Parque Natl. Carrasco",-65.46667,-17.05,FR
MSB99059,,MSB,longicaudatus,F,Bolivia,Beni,No information,"Puesto Militar Casarebe, 5.5 Km S of Casarebe by road",-64.49139,-14.89556,FR
MSB99060,,MSB,longicaudatus,F,Bolivia,Beni,No information,"Puesto Militar Casarebe, 5.5 Km S of Casarebe by road",-64.49139,-14.89556,FR
MUSM13338,RSV2120,AMNH-AMCC,longicaudatus,M,Peru,Loreto,Alto Amazonas,"Nuevo San Juan, Río Galvez",-73.16208,-5.2495,FR
MUSM13339,RSV2033,AMNH-AMCC,simonsi,M,Peru,Loreto,Alto Amazonas,"Nuevo San Juan, Río Galvez",-73.16208,-5.2495,FR
MUSM13342,RSV2076,AMNH-AMCC,simonsi,F,Peru,Loreto,Alto Amazonas,"Nuevo San Juan, Río Galvez",-73.16208,-5.2495,FR
MVZ136648,,MVZ,longicaudatus,M,Peru,Ucayali,No information,"Balta, Rio Curanja",-71.2166,-10.1333,SK
MVZ155121,,MVZ,longicaudatus,F,Peru,Amazonas,No information,"Vicinity of Huampami [Aguaruna Village], Rio Cenepa",-78.16833,-4.45667,FR
MVZ157855,JLP8271,MVZ,longicaudatus,M,Peru,Madre de Dios,No information,"Lago Sandoval, Rio Madre de Dios",-69.068,-12.63333,FR
MVZ157905,,MVZ,longicaudatus,M,Peru,Amazonas,No information,"La Poza, Rio Santiago",-77.751,-4.022,FR
MVZ157968,,MVZ,simonsi,M,Peru,Amazonas,No information,"La Poza, Rio Santiago",-77.751,-4.022,FR
MVZ160093,JLP9039,MVZ,longicaudatus,M,Venezuela,Bolivar,No information,"68 Km SE by road, Rio Cuyuni",-61.43333,6.15,FR
MVZ160094,JLP9044,MVZ,guyannensis,F,Venezuela,Bolivar,No information,"4 Km E (by road) El Pauji, 86.5 Km W Santa Elena",-61.66667,4.46667,SK
MVZ162309,,MVZ,Hoplomys gymnurus,M,Colombia,Valle del Cauca,No information,No information,-77.0185,3.93699,FR
MVZ166815,JLP11091,MVZ,simonsi,M,Peru,Madre de Dios,No information,"Aguas Calientes, Rio Alto Madre de Dios, 1 km below Shintuya",-71.26166,-12.68001,FR
MVZ168942,RMW675,MVZ,goeldii,M,Peru,Madre de Dios,No information,"Albergue Cusco Amazonica, Rio Madre de Dios, ca. 12 Km E Puero Maldonado",-69.07289,-12.6,FR
MVZ168945,I080,MVZ,trinitatis,M,Venezuela,Portuguesa,No information,"Santo Domingo, M. Nueva Florida",-69.01667,8.95,SK
MVZ168948,AN121,MVZ,canicollis,M,Venezuela,Zulia,No information,Rio Cachiri,-72.08333,10.98333,FR
MVZ168949,I230,MVZ,trinitatis,M,Trinidad and Tobago,Trinidad,No information,"Saint George Parish, Lesser Antilles, Chaguaramas",-61.63333,10.6833,SK
MVZ168953,EY624,MVZ,longicaudatus,M,Peru,Madre de Dios,No information,"Albergue Cusco Amazonica, Rio Madre de Dios, ca. 12 Km E Puero Maldonado",-69.07289,-12.6,FR
MVZ168955,EY631,MVZ,simonsi,M,Peru,Madre de Dios,No information,"Albergue Cusco Amazonica, Rio Madre de Dios, ca. 12 Km E Puero Maldonado",-69.07289,-12.6,FR
MVZ190699,JLP15922,MVZ,longicaudatus,F,Brazil,Amazonas,Itamarati,"Barro Vermelho, left bank Rio Juruá",-68.76672,-6.46666,FR
MVZ190951,,MVZ,goeldii,M,Brazil,Amazonas,No information,"Ilhazinha, left bank Rio Juruá on Igarapé Arabidi, affluent of Paraná Breu",-66.2333,-3.2833,FR
MVZ190954,,MVZ,goeldii,F,Brazil,Amazonas,No information,"Ilha Paxiuba, right bank Rio Juruá",-66,-3.31667,FR
MVZ194439,INPA3442,MVZ,longicaudatus,F,Brazil,Acre,Porto Walter,"Igarapé Porongaba, right bank Rio Juruá",-72.78304,-8.66663,FR
MVZ194463,MPEG28360; MNFS1606,MVZ,longicaudatus,NA,Brazil,Acre,Porto Walter,"Nova Vida, right bank Rio Juruá",-72.81667,-8.36666,FR
MVZ194474,MPEG28366; JUR236,MVZ,longicaudatus,F,Brazil,Acre,Porto Walter,"Nova Vida, right bank Rio Juruá",-72.81667,-8.36666,FR
MVZ194485,MPEG28371; MNFS1486,MVZ,longicaudatus,F,Brazil,Acre,Porto Walter,"Sobral, left bank Rio Juruá",-72.81662,-8.36666,FR
MVZ194491,MPEG28377; JLP15638,MVZ,longicaudatus,F,Brazil,Amazonas,Ipixuna,"Seringal Condor, left bank Rio Juruá",-70.85003,-6.75,FR
MVZ194492,MPEG28364; JUR187,MVZ,longicaudatus,F,Brazil,Amazonas,Itamarati,"Barro Vermelho, left bank Rio Juruá",-68.76672,-6.46666,FR
MVZ194493,MPEG28367; MNFS331,MVZ,longicaudatus,F,Brazil,Amazonas,No information,"Penedo, right bank Rio Juruá",-70.75008,-6.83344,FR
MVZ194511,MPEG25501; JUR297; MPEG28378,MVZ,echinothrix,M,Brazil,Amazonas,Juruá,"Lago Vai-quem-quer, right bank, Rio Juruá",-66.01666,-3.31666,FR
MVZ194545,MPEG25512; MNFS857; MPEG28381,MVZ,gardneri,F,Brazil,Amazonas,Itamarati,"Altamira, right bank Rio Juruá",-68.9002,-6.58334,FR
MVZ194567,MPEG25505; MNFS541; MPEG28385,MVZ,gardneri,M,Brazil,Amazonas,Ipixuna,"Seringal Condor, left bank Rio Juruá",-70.85003,-6.75,FR
MVZ194582,MPEG25509; MNFS1166; MPEG28392,MVZ,gardneri,M,Brazil,Acre,Porto Walter,"Igarapé Porongaba, right bank Rio Juruá",-72.78304,-8.66663,FR
MVZ194602,MPEG28409; JUR250,MVZ,simonsi,M,Brazil,Acre,Porto Walter,"Sobral, left bank Rio Juruá",-72.81662,-8.36666,FR
MVZ194635,MPEG28447; MNFS1316,MVZ,simonsi,F,Brazil,Acre,Porto Walter,"Igarapé Porongaba, right bank Rio Juruá",-72.78304,-8.66663,FR
MVZ194703,MPEG28398; JUR195,MVZ,simonsi,NA,Brazil,Amazonas,Itamarati,"Altamira, right bank Rio Juruá",-68.89219,-6.58282,FR
MVZ194711,MPEG28417; JUR302,MVZ,simonsi,F,Brazil,Amazonas,Juruá,"Lago Vai-quem-quer, right bank, Rio Juruá",-66.01666,-3.31666,FR
MVZ194775,MPEG28427; MNFS724,MVZ,simonsi,M,Brazil,Amazonas,Itamarati,"Barro Vermelho, left bank Rio Juruá",-68.76672,-6.46666,FR
MVZ194874,MPEG28572; MNFS1507,MVZ,goeldii,F,Brazil,Acre,Porto Walter,"Sobral, left bank Rio Juruá",-72.81662,-8.36666,FR
MVZ194879,MPEG28575; MNFS1548,MVZ,goeldii,F,Brazil,Acre,Porto Walter,"Nova Vida, right bank Rio Juruá",-72.81667,-8.36666,FR
MVZ194909,MPEG28486; JUR68,MVZ,goeldii,F,Brazil,Amazonas,Ipixuna,"Igarapé Nova Empresa, left bank, Rio Juruá",-70.73359,-6.80001,FR
MVZ194914,MPEG28491; JUR81,MVZ,goeldii,M,Brazil,Amazonas,Ipixuna,"Igarapé Nova Empresa, left bank, Rio Juruá",-70.73359,-6.80001,FR
MVZ194987,MPEG28540; MNFS497,MVZ,goeldii,F,Brazil,Amazonas,No information,"Penedo, right bank Rio Juruá",-70.75008,-6.83344,FR
MVZ194997,MPEG28543; MNFS599,MVZ,goeldii,F,Brazil,Acre,Porto Walter,"Sacado (Condor), right bank Rio Juruá",-70.85003,-6.75,FR
MVZ195034,MPEG28562; MNFS711,MVZ,goeldii,M,Brazil,Amazonas,Itamarati,"Jainu, right bank, Rio Juruá",-68.76667,-6.46669,FR
MVZ195036,MPEG28564; MNFS715,MVZ,goeldii,M,Brazil,Amazonas,Itamarati,"Jainu, right bank, Rio Juruá",-68.76667,-6.46669,FR
MVZ196095,,MVZ,trinitatis,M,Colombia,Santander,Finca San Miguel,"San Pedro de la Paz, Cimitarra",-73.9511,6.31417,SK
MVZ225064,,MVZ,semispinosus,F,Panama,Chiriqui,"Boquerón, Tijeras",San Miguel,-82.58217,8.46342,FR
MVZ225082,,MVZ,Hoplomys gymnurus,M,Panama,Panama,No information,No information,-79.92578,8.68753,FR
MZUSP30365,UUPI326; CIT1449,CIT,guyannensis,M,Brazil,Piauí,Bom Jesus,Estação Ecológica de Urucuí-Una,-45.20264,-8.86342,FR
MZUSP30370,UUPI412; CIT1465,CIT,guyannensis,M,Brazil,Piauí,Bom Jesus,Estação Ecológica de Urucuí-Una,-45.20264,-8.86342,FR
MZUSP31924,APC176; CIT648,CIT,goeldii,F,Brazil,Mato Grosso,Juruena,No information,-58.49231,-10.32276,FR
MZUSP31926,APC209; CIT680,CIT,longicaudatus,M,Brazil,Mato Grosso,Aripuanã,No information,-59.44718,-10.17484,FR
MZUSP31927,APC251; CIT703,CIT,longicaudatus,M,Brazil,Mato Grosso,Aripuanã,No information,-59.44718,-10.17484,FR
MZUSP31937,M000142; CIT622,CIT,longicaudatus,F,Brazil,Mato Grosso,Juruena,No information,-58.49231,-10.32276,FR
MZUSP31939,APC169; CIT642,CIT,longicaudatus,F,Brazil,Mato Grosso,Juruena,No information,-58.49231,-10.32276,FR
MZUSP31942,M97032; CIT483,CIT,guyannensis,NA,Brazil,Mato Grosso,Cláudia,No information,-54.87472,-11.50302,FR
MZUSP31944,M97180; CIT511,CIT,guyannensis,M,Brazil,Mato Grosso,Cláudia,No information,-54.87472,-11.50302,FR
MZUSP31945,M000090;  CIT589,CIT,guyannensis,M,Brazil,Mato Grosso,Gaúcha do Norte,No information,-53.25595,-13.18229,FR
MZUSP31946,M000097; CIT591,CIT,guyannensis,F,Brazil,Mato Grosso,Gaúcha do Norte,No information,-53.25595,-13.18229,FR
MZUSP31947,APC273; CIT714,CIT,guyannensis,M,Brazil,Mato Grosso,Vila Rica,No information,-51.11932,-10.01433,FR
MZUSP31948,APC274; CIT753,CIT,guyannensis,M,Brazil,Mato Grosso,Vila Rica,No information,-51.11932,-10.01433,FR
MZUSP31950,APC825,MZUSP,guyannensis,F,Brazil,Tocantins,Peixe,No information,-48.54,-12.02688,FR
MZUSP31951,APC847,MZUSP,guyannensis,F,Brazil,Tocantins,Peixe,No information,-48.54,-12.02688,FR
NUTRIA289,,CTA-UFES,Myocastor coypus,NA,No information,No information,No information,No information,NA,NA,FR
PLVP642,,LMUSP,echinothrix,NA,Brazil,Amazonas,Novo Airão,"Comunidade Tambor, Parque Nacional do Jaú",-62.48921,-2.30486,FR
PNPA321,,MZUSP,longicaudatus,M,Brazil,Mato Grosso do Sul,Corumbá,Fazenda Acurizal,-57.16668,-19.63333,FR
PNPA357,,MZUSP,longicaudatus,F,Brazil,Mato Grosso do Sul,Corumbá,Fazenda Acurizal,-57.16668,-19.63333,FR
RGM853,,MZUSP,goeldii,NA,Brazil,Mato Grosso,Pontes e Lacerda,UHE Guaporé,-58.97905,-15.13767,DR
RGM856,,MZUSP,goeldii,NA,Brazil,Mato Grosso,Pontes e Lacerda,UHE Guaporé,-58.97905,-15.13767,DR
ROM115116,,ROM,trinitatis,F,Guyana,Cuyuni-Mazaruni,No information,"Mount Roraima, Ridge Camp",-60.76667,5.33333,FR
ROM117526,,ROM,guyannensis,F,Suriname,Sipiliwini,No information,"Bakhuis, Transect 11",-56.88556,4.46694,FR
ROM119901,,ROM,longicaudatus,F,Guyana,Potaro-Siparuni,No information,"Iwokrama Forest, Canopy Walkway",-58.90933,4.24963,FR
TL17240,,MZUSP,goeldii,F,Brazil,Pará,No information,Terra Indígena Kayapó,-51.98652,-7.70104,DR
TL17273,,MZUSP,guyannensis,M,Brazil,Pará,No information,Terra Indígena Kayapó,-51.98652,-7.70104,DR
TTU100580,TK119156,TTU,semispinosus,F,Nicaragua,Atlantico Sur,Nueva Guinea,El Paraisito,-84.39952,11.67685,FR
TTU103310,TK134958,TTU,decumanus,M,Ecuador,Guayas,No information,"Bosque Protector Cerro Blanco, Centro de Visitantes",-80.02158,-2.42728,FR
TTU102638,TK135304,TTU,decumanus,M,Ecuador,El Oro,"Las Lajas, La Libertad","Puyango, Bosque Petrificado, Sector Quebrada de los Sabalos",-80.09286,-3.8795,FR
TTU102971,TK135716,TTU,semispinosus,F,Ecuador,Esmeraldas,No information,Comuna San Francisco de Bogota,-78.70597,1.09356,FR
TTU102977,TK135943,TTU,semispinosus,M,Ecuador,Esmeraldas,No information,Comuna San Francisco de Bogota,-78.70597,1.09356,FR
TTU106013,TK145304,TTU,guyannensis,M,Suriname,Sipiliwini,No information,Lely Mountain,-54.73945,4.26732,FR
TTU34990,TK14603,TTU,longicaudatus,F,Bolivia,La Paz,No information,1 Mi W Puerto Linares,-67.53333,-15.46667,FR
TTU34991,TK14609,TTU,longicaudatus,M,Bolivia,La Paz,No information,1 Mi W Puerto Linares,-67.53333,-15.46667,FR
TTU46355,TK22895,TTU,longicaudatus,M,Peru,Huanuco,Leoncia Prada,"11.5 Km N, 4 Km E Tingo Maria",-75.95,-9.2,FR
TTU46356,TK22911,TTU,longicaudatus,M,Peru,Huanuco,Leoncia Prada,"12.5 Km N, 4 Km E Tingo Maria",-75.95,-9.2,FR
TTU101118,TK73760,TTU,simonsi,F,Peru,Loreto,Maynas,"Iquitos, 25 Km S, Estacion Biologica Allpahuayo",-73.26836,-4.02398,FR
TTU101173,TK73888,TTU,longicaudatus,F,Peru,Loreto,Maynas,"Iquitos, 25 Km S, Estacion Biologica Allpahuayo",-73.26836,-4.02398,FR
TTU101179,TK73909,TTU,longicaudatus,F,Peru,Loreto,Maynas,"Iquitos, 21 Km S, Estacion Biologica Allpahuayo",-73.26836,-4.02398,FR
TTU101195,TK73940,TTU,longicaudatus,F,Peru,Loreto,Maynas,"Iquitos, 21 Km S, Estacion Biologica Allpahuayo",-73.26836,-4.02398,FR
TTU101213,TK73977,TTU,longicaudatus,F,Peru,Loreto,Maynas,"Iquitos, 25 Km S, Estacion Biologica Allpahuayo",-73.26836,-4.02398,FR
UFMG4356,,UFMG,guyannensis,NA,Brazil,Pará,Canaã dos Carajás,Canaã dos Carajás,-49.85198,-6.53241,FR
UFPB1015,,UFPB,longicaudatus,M,Brazil,Amazonas,Presidente Figueiredo,UHE Balbina,-59.499,-1.93314,SK
UFPB1265,,UFPB,longicaudatus,M,Brazil,Rondônia,Candeias do Jamari,"Rio Jamari, UHE Samuel",-63.45693,-8.75272,SK
UFPB1266,,UFPB,longicaudatus,F,Brazil,Rondônia,Candeias do Jamari,"Rio Jamari, UHE Samuel",-63.45693,-8.75272,SK
UFPB2990,,UFPB,simonsi,F,Peru,Loreto,Alto Amazonas,Yurimaguás,-76.1094,-5.89482,DR
UFPB6734,,UFPB,guyannensis,NA,Brazil,Tocantins,Porto Nacional,"Chácara Santo Antônio de Pádua, Assentamento Santo Antônio (+ ou - 8km L Porto Nacional)",-48.33851,-10.71415,DR
UFPB6929,,UFPB,guyannensis,F,Brazil,Maranhão,Alcântara,Centro de Lançamento Aeroespacial (CLA Alcântara),-44.41654,-2.33712,DR
UFPB6931,,UFPB,guyannensis,F,Brazil,Maranhão,Alcântara,Centro de Lançamento Aeroespacial (CLA Alcântara),-44.41654,-2.33712,DR
UFPB6932,,UFPB,guyannensis,F,Brazil,Maranhão,Alcântara,Centro de Lançamento Aeroespacial (CLA Alcântara),-44.41654,-2.33712,DR
UMMZ80045,,UMMZ,simonsi,M,Ecuador,Napo,No information,"Llunchi, Rio Napo, Napo-Pastaza",-76.81724,-0.43999,DR
UMMZ80079,,UMMZ,goeldii,F,Ecuador,Napo,No information,"Llunchi, Rio Napo, Napo-Pastaza",-76.81724,-0.43999,DR
UMMZ92712,,UMMZ,semispinosus,NA,Colombia,Meta,Villavicencio,No information,-73.61667,4.15,DR
UNIBAN1392,,CIT,longicaudatus,,Brazil,Rondonia,Montenegro,No information,-63.22963,-10.21504,FR
USNM499715,,USNM,trinitatis,F,Colombia,Antioquia,Zaragoza,"25 Km S, 22 Km W, At La Tirana",-75.07118,7.30036,SK
USNM549559,,USNM,longicaudatus,M,Brazil,Para,Altamira,"Altamira, 52 Km SSW, E Bank Rio Xingu",-52.37,-3.65,FR
USNM549567,,USNM,longicaudatus,M,Brazil,Para,Altamira,"Altamira, 52 Km SSW, E Bank Rio Xingu",-52.37,-3.65,FR
USNM568055,,USNM,longicaudatus,M,Guyana,Barima-Waini,North West District,"Baramita, North West Of Airstrip Near Creek",-60.4911,7.3706,FR
USNM579697,,USNM,simonsi,F,Peru,Puno,No information,"Fila Boca Guacamayo, SE; Rio Tavara",-69.6844,-13.5044,FR
USNM581908,,USNM,longicaudatus,M,Bolivia,Santa Cruz,Chiquitos,"Santiago De Chiquitos, 46 Km From, On Road To Santo Corazon, 1 Km N Of Murcielago Camp",-59.0267,-18.0583,FR
USNM584593,,USNM,longicaudatus,M,Bolivia,Santa Cruz,Velasco,"Parque Nacional Kempff Mercado, El Refugio, 3 Km. NE",-61.0347,-14.7672,FR
USNM619001,LHE0742,USNM,simonsi,NA,Bolivia,La Paz,Iturraldi,"Río Madidi, Moire Camp",-68.7667,-13.5833,FR
USNM619002,LHE0747,USNM,goeldii,NA,Bolivia,La Paz,Iturraldi,"Río Madidi, Moire Camp",-68.7667,-13.5833,FR
USNM619003,LHE0820,USNM,simonsi,NA,Peru,Puno,No information,"Junction of Río Tavara, Guacamayo and Candamo, on the ridge to esat of Boca Guacamayo",-69.68355,-13.49957,FR
USNM619004,ALG14009,USNM,guyannensis,NA,Venezuela,Amazonas,No information,ca. 5 Km E San Carlos de Rio Negro,-67.01537,1.91987,FR
USNM619005,TTS382,USNM,longicaudatus,NA,Bolivia,Santa Cruz,No information,Cerro Mutún,-57.86666,-19.18331,FR
USNM619006,NBH1305,USNM,longicaudatus,NA,Bolivia,Beni,No information,Parque Nacional Noel Kempff Mercado ,-60.85286,-14.3699,FR
USNM619007,LLW424,USNM,simonsi,NA,Peru,Cusco,No information,Cordillera de Vilcabamba,-73.34073,-11.77955,FR
USNM619008,ACF076,USNM,simonsi,NA,Peru,Madre de Dios,No information,"Santuario Nacional Pampas del Heath, Refugio Juliaca",-68.88173,-12.95664,FR
X1M15,,LMUSP,longicaudatus,F,Brazil,Pará,Novo Repartimento,No information,-49.94611,-4.25168,FR
X1M19,,LMUSP,guyannensis,F,Brazil,Pará,Pacajá,No information,-50.63753,-3.83923,FR
X1M24,,LMUSP,longicaudatus,M,Brazil,Pará,Pacajá,No information,-50.63753,-3.83923,FR
X1M36,,LMUSP,goeldii,M,Brazil,Pará,Marabá,No information,-49.09108,-5.34573,FR
Z9P01,,LMUSP,guyannensis,NA,Brazil,Goiás,Barro Alto,No information,-48.91626,-14.97213,FR
